City_ID,City,Lat,Lng,Max Temp,Humidity,Cloudiness,Wind Speed,Country,Date
0,dongyang,29.2678,120.2253,42.93,53,3,5.79,CN,1699831828
1,blackmans bay,-43.0167,147.3167,61.52,49,7,6.22,AU,1699831252
2,vila velha,-20.3297,-40.2925,80.94,84,0,9.22,BR,1699831256
3,waitangi,-43.9535,-176.5597,54.57,86,56,19.37,NZ,1699831242
4,amal,59.051,12.7049,31.39,84,25,8.39,SE,1699831829
5,sasebo,33.1592,129.7228,50.0,57,76,16.96,JP,1699831829
6,beli,7.8587,10.9719,78.39,68,45,2.39,NG,1699831830
7,isafjordur,66.0755,-23.124,35.47,82,100,4.09,IS,1699831232
8,urengoy,65.9667,78.3667,18.91,92,94,9.35,RU,1699831830
9,nar'yan-mar,67.6713,53.087,11.1,94,40,5.01,RU,1699831312
10,ust-nera,64.5667,143.2,-13.83,100,100,2.26,RU,1699831348
11,iqaluit,63.7506,-68.5145,-0.31,70,20,8.05,CA,1699831831
12,port-aux-francais,-49.35,70.2167,40.93,84,100,12.01,TF,1699831831
13,flying fish cove,-10.4217,105.6791,76.68,88,100,9.22,CX,1699831297
14,uturoa,-16.7333,-151.4333,81.61,77,8,7.78,PF,1699831250
15,bredasdorp,-34.5322,20.0403,55.87,85,2,0.85,ZA,1699831255
16,gombi,10.1614,12.7399,75.43,33,78,3.38,NG,1699831833
17,jamestown,42.097,-79.2353,39.02,67,0,6.91,US,1699831023
18,puerto natales,-51.7236,-72.4875,47.03,75,91,4.94,CL,1699831241
19,la passe,45.5549,-0.8967,59.99,91,100,9.64,FR,1699831380
20,port elizabeth,-33.918,25.5701,58.32,77,21,5.99,ZA,1699831284
21,khandyga,62.6667,135.6,-8.27,97,100,1.9,RU,1699831834
22,margaret river,-33.95,115.0667,58.8,89,100,13.8,AU,1699831255
23,whitehorse,60.7161,-135.0538,27.37,79,75,6.91,CA,1699831259
24,grytviken,-54.2811,-36.5092,37.47,90,100,3.15,GS,1699831835
25,edinburgh of the seven seas,-37.0676,-12.3116,57.4,83,7,22.1,SH,1699831835
26,saacow,1.6279,42.4407,77.04,87,80,6.62,SO,1699831835
27,alindao,5.0267,21.2088,69.71,99,59,2.84,CF,1699831836
28,bukama,-9.2,25.85,70.54,97,99,3.15,CD,1699831836
29,bethel,41.3712,-73.414,38.48,68,0,1.01,US,1699831241
30,mokhotlong,-29.2894,29.0675,48.58,73,8,2.01,LS,1699831837
31,harper,4.375,-7.7169,78.69,88,29,8.48,LR,1699831321
32,lyantor,61.6195,72.1555,28.44,96,99,12.12,RU,1699831837
33,auki,-8.7676,160.7034,81.52,79,99,1.32,SB,1699831837
34,albany,42.6001,-73.9662,33.67,74,5,1.39,US,1699831240
35,abaza,52.655,90.0928,28.67,91,100,3.2,RU,1699831838
36,papatowai,-46.5619,169.4708,54.36,95,100,1.57,NZ,1699831248
37,puerto san jose,13.9256,-90.8244,81.93,84,14,4.99,GT,1699831838
38,san patricio,28.017,-97.5169,62.83,95,100,10.63,US,1699831297
39,adamstown,-25.066,-130.1015,73.15,84,100,18.43,PN,1699831839
40,canico,32.6333,-16.85,70.43,83,75,4.61,PT,1699831839
41,puerto santa,-8.9906,-78.6456,67.35,86,76,11.07,PE,1699831839
42,anadyr,64.75,177.4833,30.7,80,81,20.13,RU,1699831249
43,badger,64.8,-147.5333,17.85,92,57,2.89,US,1699831252
44,kirikkale,39.8333,33.75,49.08,72,95,4.94,TR,1699831840
45,naracoorte,-36.9579,140.7383,63.75,43,31,8.21,AU,1699831840
46,luziania,-16.2525,-47.9503,87.49,28,55,4.88,BR,1699831840
47,baruun-urt,46.6806,113.2792,9.79,84,4,12.86,MN,1699831840
48,ushuaia,-54.8,-68.3,51.46,50,75,11.5,AR,1699831247
49,nadi,-17.8,177.4167,78.8,83,75,4.61,FJ,1699831841
50,kavieng,-2.5744,150.7967,82.67,71,100,5.35,PG,1699831357
51,vila franca do campo,37.7167,-25.4333,68.41,92,100,15.46,PT,1699831305
52,tortoli,39.9256,9.6572,67.82,45,0,25.32,IT,1699831842
53,wailua homesteads,22.0669,-159.378,82.83,80,40,20.71,US,1699831286
54,pilibhit,28.6333,79.8,61.38,63,0,2.57,IN,1699831843
55,chelsea,51.4875,-0.1694,51.44,93,75,5.75,GB,1699831843
56,udachny,66.4167,112.4,8.46,84,100,7.0,RU,1699831250
57,empalme,27.9667,-110.8167,85.35,39,0,11.5,MX,1699831775
58,as sulayyil,20.4607,45.5779,66.45,45,24,8.19,SA,1699831844
59,cabo san lucas,22.8909,-109.9124,84.76,62,40,5.99,MX,1699831174
60,boende,-0.2167,20.8667,69.21,99,94,1.14,CD,1699831844
61,gizo,-8.103,156.8419,82.17,74,86,10.58,SB,1699831845
62,stanley,54.868,-1.6985,43.72,94,100,7.87,GB,1699831845
63,talnakh,69.4865,88.3972,29.21,96,100,9.6,RU,1699831845
64,baotou,40.6522,109.8222,27.3,31,100,4.14,CN,1699831845
65,avarua,-21.2078,-159.775,75.25,57,20,8.05,CK,1699831846
66,ketchikan,55.3422,-131.6461,46.38,61,0,11.5,US,1699831846
67,belmonte,-15.8631,-38.8828,77.63,79,3,14.99,BR,1699831367
68,ambalavao,-21.8333,46.9333,63.14,84,7,1.01,MG,1699831846
69,kilindoni,-7.9139,39.6668,79.41,80,87,2.77,TZ,1699831847
70,the pas,53.8251,-101.2541,33.82,93,75,9.22,CA,1699831847
71,olonkinbyen,70.9221,-8.7187,26.56,67,98,5.17,SJ,1699831847
72,tiksi,71.6872,128.8694,2.59,90,100,14.09,RU,1699831847
73,porto velho,-8.7619,-63.9039,78.85,94,40,2.3,BR,1699831847
74,homer,59.6425,-151.5483,37.27,70,0,5.01,US,1699831848
75,pizarro,4.9533,-77.366,77.31,91,100,1.7,CO,1699831848
76,punta arenas,-53.15,-70.9167,51.91,54,75,23.02,CL,1699830987
77,canton,23.1167,113.25,62.55,64,41,12.86,CN,1699831832
78,itapolis,-21.5956,-48.8128,85.91,25,79,4.85,BR,1699831849
79,prnjavor,44.8703,17.6628,36.66,81,99,1.19,BA,1699831849
80,broken hill,-31.95,141.4333,68.58,28,43,10.58,AU,1699831361
81,thompson,55.7435,-97.8558,28.56,100,100,3.44,CA,1699831256
82,tres isletas,-26.3407,-60.4321,81.28,67,54,14.14,AR,1699831850
83,francistown,-21.17,27.5079,77.09,19,49,11.88,BW,1699831850
84,mailsi,29.8003,72.1758,65.37,42,6,5.17,PK,1699831850
85,quellon,-43.1167,-73.6167,47.66,72,99,7.47,CL,1699831268
86,puerto ayora,-0.7393,-90.3518,77.56,88,47,5.99,EC,1699831254
87,lompoc,34.6391,-120.4579,81.01,41,0,12.66,US,1699831263
88,turkestan,43.3333,68.25,39.65,60,1,4.32,KZ,1699831851
89,sisimiut,66.9395,-53.6735,16.02,84,92,7.18,GL,1699831343
90,dryden,49.7833,-92.7503,34.09,100,100,11.5,CA,1699831262
91,zemio,5.0314,25.1361,69.62,97,80,3.09,CF,1699831852
92,constantia,44.1833,28.65,43.7,49,96,5.66,RO,1699831852
93,happy valley-goose bay,53.3168,-60.3315,26.91,68,20,11.5,CA,1699831367
94,juneau,58.3019,-134.4197,41.0,93,20,5.75,US,1699831807
95,fale old settlement,-9.3852,-171.2468,83.95,71,67,2.1,TK,1699831359
96,kitakata,37.65,139.8667,40.84,96,100,5.79,JP,1699831853
97,misratah,32.3754,15.0925,70.38,59,0,5.95,LY,1699831853
98,kirriemuir,56.674,-3.0034,44.83,93,95,8.21,GB,1699831853
99,invercargill,-46.4,168.35,52.02,94,100,7.0,NZ,1699831853
100,kodiak,57.79,-152.4072,40.51,56,0,5.75,US,1699831853
101,aykhal,66.0,111.5,9.14,95,100,9.64,RU,1699831854
102,touros,-5.1989,-35.4608,77.99,78,0,13.53,BR,1699831142
103,pemba,-12.974,40.5178,79.5,89,40,3.44,MZ,1699831854
104,novodvinsk,64.4165,40.8122,25.79,93,26,9.22,RU,1699831854
105,cockburn town,21.4612,-71.1419,82.9,78,3,19.46,TC,1699831855
106,dul'durga,50.6761,113.5931,9.41,92,10,3.15,RU,1699831855
107,yomju-up,39.8933,124.5981,27.48,49,0,10.2,KP,1699831855
108,rikaze,29.25,88.8833,25.48,24,0,2.75,CN,1699831855
109,sola,-13.8833,167.55,78.69,78,98,28.74,VU,1699831856
110,alice springs,-23.7,133.8833,81.95,47,54,8.05,AU,1699831577
111,nemuro,43.3236,145.575,40.41,54,69,14.92,JP,1699831278
112,cambria,35.5641,-121.0808,81.34,61,60,4.0,US,1699831856
113,sarangani,5.4033,125.4636,82.65,75,9,3.49,PH,1699831857
114,zarnesti,45.3,26.8667,41.32,58,84,4.23,RO,1699831857
115,kutahya,39.4242,29.9833,49.71,90,81,4.36,TR,1699831857
116,quartu sant'elena,39.2419,9.1839,67.03,67,20,12.66,IT,1699831857
117,port mathurin,-19.6833,63.4167,76.93,81,0,5.3,MU,1699831275
118,barra de santo antonio,-9.4047,-35.5072,74.48,74,0,7.07,BR,1699831858
119,port lincoln,-34.7333,135.8667,60.3,69,91,12.39,AU,1699831027
120,klyuchi,52.2667,79.1667,40.59,87,99,9.62,RU,1699831281
121,piti village,13.4626,144.6933,86.88,81,20,13.8,GU,1699831858
122,fort bragg,35.139,-79.006,54.95,69,40,4.61,US,1699831287
123,west island,-12.1568,96.8225,78.78,89,75,8.05,CC,1699831266
124,pemangkat,1.1667,108.9667,77.38,86,96,4.21,ID,1699831296
125,susuman,62.7833,148.1667,-26.73,98,100,0.16,RU,1699831273
126,longyearbyen,78.2186,15.6401,24.64,86,75,14.97,SJ,1699831283
127,coquimbo,-29.9533,-71.3436,62.33,67,20,11.5,CL,1699831860
128,vorgashor,67.5833,63.95,11.8,97,50,9.24,RU,1699831295
129,ojinaga,29.5667,-104.4167,57.58,100,100,8.05,MX,1699831860
130,lorengau,-2.0226,147.2712,84.54,63,63,4.03,PG,1699831861
131,bechar,31.6167,-2.2167,62.92,34,0,2.3,DZ,1699831861
132,racine,42.7495,-88.0751,53.29,55,0,9.22,US,1699831837
133,yellowknife,62.456,-114.3525,18.41,97,100,21.0,CA,1699831190
134,castelo do piaui,-5.3222,-41.5525,83.62,28,3,5.82,BR,1699831861
135,korpilahti,62.0167,25.55,32.54,92,100,9.06,FI,1699831862
136,iskateley,67.6803,53.1512,11.01,94,42,5.01,RU,1699831307
137,fallon,39.4735,-118.7774,60.67,27,0,9.22,US,1699831862
138,labuan,5.2767,115.2417,80.96,94,20,0.0,MY,1699831863
139,trondheim,63.4305,10.3951,32.09,83,37,6.51,NO,1699831823
140,novokayakent,42.3937,47.9861,58.93,60,37,1.41,RU,1699831863
141,namibe,-15.1961,12.1522,71.56,79,83,4.41,AO,1699831319
142,eirunepe,-6.6603,-69.8736,80.38,77,90,2.8,BR,1699831636
143,tazovsky,67.4667,78.7,12.6,96,94,11.34,RU,1699831864
144,al ghayzah,16.2079,52.176,79.09,71,0,1.43,YE,1699831864
145,chonchi,-42.6128,-73.8092,50.13,67,94,2.64,CL,1699831012
146,villa gesell,-37.2639,-56.973,56.05,59,64,15.88,AR,1699831865
147,college,64.8569,-147.8028,17.92,92,64,2.59,US,1699831734
148,hermanus,-34.4187,19.2345,57.9,84,1,9.19,ZA,1699831865
149,magadan,59.5667,150.8,11.93,61,100,8.86,RU,1699831867
150,acajutla,13.5928,-89.8275,81.86,81,43,3.56,SV,1699831867
151,kristiansund,63.1115,7.732,34.45,75,21,5.75,NO,1699831867
152,sao paulo de olivenca,-3.3783,-68.8725,75.87,95,83,0.76,BR,1699831868
153,sitka,57.0531,-135.33,46.29,61,0,0.0,US,1699831868
154,corner brook,48.9667,-57.9484,28.56,88,75,5.06,CA,1699831615
155,port hueneme,34.1478,-119.1951,86.36,26,0,8.05,US,1699831684
156,ilulissat,69.2167,-51.1,10.42,61,100,0.0,GL,1699831869
157,cascais,38.6979,-9.4215,67.51,95,7,7.0,PT,1699831373
158,imbituba,-28.24,-48.6703,70.75,98,89,3.94,BR,1699831870
159,saint-francois,46.4154,3.9054,56.64,84,100,10.36,FR,1699831870
160,sainte-anne-des-monts,49.124,-66.4924,30.07,74,54,14.97,CA,1699831871
161,ouadda,8.0777,22.4007,68.18,96,86,2.17,CF,1699831871
162,afaahiti,-17.75,-149.2833,85.87,83,28,10.02,PF,1699831275
163,vuktyl,63.8567,57.3094,25.11,98,99,3.0,RU,1699831871
164,tutoia,-2.7619,-42.2744,79.66,79,0,11.65,BR,1699831872
165,ronneby,56.21,15.276,37.9,100,100,1.14,SE,1699831872
166,languyan,5.2618,120.0807,82.33,80,2,3.65,PH,1699831872
167,assai,-23.3733,-50.8414,94.86,35,48,5.48,BR,1699831872
168,akureyri,65.6835,-18.0878,30.13,74,0,3.44,IS,1699831873
169,qaqortoq,60.7167,-46.0333,18.03,89,10,1.57,GL,1699831873
170,kailua-kona,19.6406,-155.9956,82.36,76,40,9.22,US,1699831318
171,northam,51.0333,-4.2167,56.66,96,100,17.43,GB,1699831873
172,mirny,62.5353,113.9611,5.23,92,100,1.99,RU,1699831874
173,port alfred,-33.5906,26.891,56.17,89,32,1.01,ZA,1699831874
174,nuku'alofa,-21.1333,-175.2,70.14,94,100,13.8,TO,1699831373
175,burang,30.25,81.1667,24.93,62,1,1.01,CN,1699831309
176,dudinka,69.4058,86.1778,30.67,98,100,17.0,RU,1699831875
177,phan thiet,10.9333,108.1,75.18,88,25,4.61,VN,1699831190
178,la sarre,48.8002,-79.1996,25.45,93,54,8.03,CA,1699831744
179,hawaiian paradise park,19.5933,-154.9731,80.78,79,20,5.75,US,1699831876
180,hirara,24.8,125.2833,71.87,73,75,25.32,JP,1699831876
181,ganshui,28.7422,106.7111,50.5,83,100,2.26,CN,1699831876
182,sokcho,38.2083,128.5911,38.01,35,0,10.36,KR,1699831876
183,santana,-0.0583,-51.1817,86.18,70,0,16.11,BR,1699831877
184,verdal,63.7933,11.4817,24.84,71,11,4.97,NO,1699831877
185,jiangyin,31.9282,120.3126,40.98,51,33,9.57,CN,1699831877
186,midland,31.9974,-102.0779,57.87,87,100,9.22,US,1699831844
187,gantang,26.92,119.6333,57.58,81,99,3.47,CN,1699831877
188,ocana,8.2377,-73.356,67.26,94,91,5.23,CO,1699831878
189,smithers,54.7804,-127.1743,30.52,93,100,8.05,CA,1699831279
190,ellsworth,44.5434,-68.4195,35.64,80,100,3.44,US,1699831878
191,nova vicosa,-17.8919,-39.3719,77.11,80,14,15.99,BR,1699831878
192,tlahualilo de zaragoza,26.1167,-103.45,59.97,81,100,9.01,MX,1699831879
193,gubkinskiy,64.434,76.5026,18.45,95,98,14.25,RU,1699831879
194,hamilton,39.1834,-84.5333,52.74,57,0,4.61,US,1699831805
195,enewetak,11.3474,162.3373,81.18,84,100,21.59,MH,1699831364
196,bilibino,68.0546,166.4372,8.8,96,100,4.27,RU,1699831866
197,capinzal,-27.3436,-51.6119,76.41,80,65,2.33,BR,1699831880
198,keflavik,64.0049,-22.5624,39.11,70,0,14.97,IS,1699831281
199,hithadhoo,-0.6,73.0833,81.1,79,92,5.59,MV,1699831368
200,nea artaki,38.5167,23.6333,68.04,71,100,3.49,GR,1699831880
201,kapa'a,22.0752,-159.319,84.18,80,40,20.71,US,1699831880
202,sylvan lake,52.3168,-114.0853,40.57,44,0,5.75,CA,1699831881
203,hamada,34.8833,132.0833,41.72,87,100,15.08,JP,1699831881
204,petropavlovsk-kamchatsky,53.0452,158.6483,27.19,74,75,28.01,RU,1699831881
205,jisr ash shughur,35.8143,36.3206,65.84,42,22,1.43,SY,1699831882
206,tofol,5.3248,163.0078,83.98,74,100,9.22,FM,1699831882
207,saipan,15.1355,145.701,86.7,74,20,16.11,MP,1699831882
208,mumford,5.2618,-0.759,79.88,86,5,8.25,GH,1699831882
209,ironwood,46.4547,-90.171,46.81,61,20,11.5,US,1699831304
210,kourou,5.1552,-52.6478,79.86,86,65,9.35,GF,1699831366
211,barclayville,4.6797,-8.2339,77.47,91,23,6.89,LR,1699831883
212,sumbe,-11.2061,13.8437,77.72,89,99,3.94,AO,1699831311
213,mabaruma,8.2,-59.7833,78.03,86,99,4.36,GY,1699831883
214,balvi,57.1313,27.2658,35.29,99,100,6.17,LV,1699831884
215,okhotsk,59.3833,143.3,2.25,80,1,22.3,RU,1699831884
216,victorica,-36.2151,-65.4359,55.92,27,5,5.97,AR,1699831885
217,rolante,-29.6506,-50.5758,72.66,99,96,3.89,BR,1699831885
218,kotlas,61.2611,46.6556,32.05,90,100,5.99,RU,1699831885
219,holualoa,19.6228,-155.9522,78.78,75,40,9.22,US,1699831885
220,karratha,-20.7377,116.8463,77.47,43,3,12.97,AU,1699831885
221,castillos,-34.1667,-53.8333,60.28,87,92,5.68,UY,1699831886
222,prado,-17.3411,-39.2208,76.68,82,37,15.41,BR,1699831886
223,debark',13.1561,37.8981,51.3,71,78,2.62,ET,1699831886
224,arraial do cabo,-22.9661,-42.0278,76.73,81,100,6.17,BR,1699831886
225,tura,25.5198,90.2201,63.41,85,0,4.18,IN,1699831887
226,salinopolis,-0.6136,-47.3561,80.06,78,12,12.28,BR,1699831887
227,ambon,-3.6954,128.1814,80.74,83,20,4.61,ID,1699831887
228,utrik,11.2278,169.8474,82.33,81,100,19.42,MH,1699831887
229,koryazhma,61.3143,47.1691,31.91,97,100,11.88,RU,1699831888
230,makaha,21.4694,-158.2175,85.91,69,100,18.41,US,1699831888
231,polyarnyy,69.1989,33.4478,15.19,95,94,9.46,RU,1699831888
232,constitucion,-35.3333,-72.4167,49.8,74,0,17.29,CL,1699831889
233,iwaki,37.05,140.8833,47.01,74,100,7.0,JP,1699831890
234,egilsstadir,65.2653,-14.3948,26.51,86,40,3.44,IS,1699831349
235,bubaque,11.2833,-15.8333,82.94,67,11,11.68,GW,1699831891
236,machico,32.7,-16.7667,70.43,81,75,4.61,PT,1699831312
237,trenggalek,-8.05,111.7167,80.4,80,49,4.5,ID,1699831891
238,lihue,21.9789,-159.3672,83.44,74,40,20.71,US,1699831892
239,sambava,-14.2667,50.1667,74.86,84,43,8.7,MG,1699831892
240,turpan,42.9333,89.1667,40.41,32,6,1.45,CN,1699831892
241,st. john's,47.5649,-52.7093,31.96,90,100,14.97,CA,1699831893
242,shanwei,22.782,115.3475,65.73,70,100,10.27,CN,1699831893
243,beira,-19.8436,34.8389,69.89,100,20,3.44,MZ,1699831893
244,sechura,-5.5569,-80.8222,71.13,74,8,18.3,PE,1699831893
245,kerikeri,-35.2268,173.9474,66.16,52,0,6.53,NZ,1699831329
246,aasiaat,68.7098,-52.8699,5.04,86,57,4.34,GL,1699831871
247,passos,-20.7189,-46.6097,81.73,29,45,2.84,BR,1699831733
248,fruitland,38.3221,-75.6202,44.6,78,0,3.44,US,1699831894
249,kapuskasing,49.4169,-82.4331,33.89,93,100,14.97,CA,1699831813
250,les cayes,18.2,-73.75,80.56,82,7,5.57,HT,1699831894
251,choele choel,-39.2667,-65.6833,59.23,18,0,10.11,AR,1699831895
252,ar raqqah,35.95,39.0167,65.53,47,26,0.43,SY,1699831895
253,smolyaninovo,43.2956,132.4675,22.33,38,71,8.68,RU,1699831895
254,qarazhal,48.0078,70.7903,36.28,94,100,7.23,KZ,1699831896
255,qamdo,31.1667,97.2333,14.65,51,1,3.65,CN,1699831382
256,pitimbu,-7.4706,-34.8086,79.39,72,0,8.3,BR,1699831896
257,mount gambier,-37.8333,140.7667,60.33,52,76,6.04,AU,1699831896
258,puerto armuelles,8.2833,-82.8667,82.38,84,100,7.0,PA,1699831313
259,hadibu,12.65,54.0333,80.38,80,80,12.35,YE,1699831355
260,saint-pierre,-21.3393,55.4781,67.68,68,0,6.91,RE,1699831309
261,walvis bay,-22.9575,14.5053,59.95,82,9,3.44,NA,1699831897
262,terbanggi besar,-4.8667,105.2333,79.32,81,99,3.38,ID,1699831897
263,mugia,43.1041,-9.2179,66.9,92,90,29.15,ES,1699831898
264,berezovo,63.9381,65.0419,15.33,89,4,7.05,RU,1699831898
265,banda aceh,5.5577,95.3222,79.86,80,100,6.8,ID,1699831898
266,semirara,12.0697,121.3986,82.83,77,29,22.32,PH,1699831898
267,fauske,67.2588,15.3918,29.77,78,21,8.46,NO,1699831899
268,shache,38.4167,77.2406,39.7,31,3,2.53,CN,1699831305
269,rongelap,11.1635,166.8941,82.24,83,100,19.19,MH,1699831365
270,tari,12.4086,4.4914,78.69,19,4,9.71,NG,1699831899
271,villamontes,-21.25,-63.5,78.48,61,67,9.08,BO,1699831900
272,saudarkrokur,65.7461,-19.6394,31.57,61,97,6.02,IS,1699831900
273,bor,56.3567,44.0669,44.53,84,100,18.14,RU,1699831900
274,luang prabang,19.8856,102.1347,70.59,98,87,1.86,LA,1699831900
275,pacasmayo,-7.4006,-79.5714,69.28,78,39,14.92,PE,1699831609
276,luderitz,-26.6481,15.1594,64.69,57,0,18.34,NA,1699831899
277,puerto carreno,6.189,-67.4859,78.78,94,40,6.91,CO,1699831901
278,kankan,10.3854,-9.3057,78.71,43,67,1.1,GN,1699831901
279,behompy,-23.2496,43.8557,69.08,74,0,1.61,MG,1699831902
280,ribeira grande,38.5167,-28.7,64.78,87,100,5.99,PT,1699831902
281,tshikapa,-6.4167,20.8,67.86,99,100,0.69,CD,1699831902
282,papao,-17.75,-149.55,87.48,80,40,2.37,PF,1699831326
283,pahrump,36.2083,-115.9839,71.83,10,29,3.0,US,1699831903
284,broome,42.2506,-75.833,35.98,77,100,5.75,US,1699831367
285,ola,59.5833,151.2833,11.91,63,100,12.95,RU,1699831903
286,woolgoolga,-30.1106,153.2007,71.04,77,65,15.03,AU,1699831903
287,shetpe,44.1667,52.1167,49.14,39,36,17.81,KZ,1699831904
288,mejit,10.2753,170.8646,82.71,81,91,16.89,MH,1699831904
289,haiku-pauwela,20.9219,-156.3051,83.25,56,20,27.63,US,1699831904
290,vangaindrano,-23.35,47.6,66.61,84,10,5.5,MG,1699831904
291,onega,63.9061,38.1404,25.34,75,26,14.03,RU,1699831905
292,salalah,17.0151,54.0924,78.89,53,0,4.61,OM,1699831905
293,mirnyy,62.5353,113.9611,5.23,92,100,1.99,RU,1699831874
294,kitimat,54.0524,-128.6534,40.91,77,98,4.0,CA,1699831905
295,filingue,14.3521,3.3168,81.01,15,3,9.19,NE,1699831906
296,baracoa,20.3467,-74.4958,80.71,87,60,11.41,CU,1699831906
297,le blanc,46.6667,1.1667,57.6,94,100,15.3,FR,1699831906
298,sao joao da barra,-21.6403,-41.0511,80.69,89,36,9.15,BR,1699831906
299,mahina,-17.5065,-149.489,87.57,70,40,10.36,PF,1699831906
300,wainwright,52.839,-110.8572,35.78,35,3,6.89,CA,1699831907
301,minas de marcona,-15.2119,-75.1103,58.5,89,86,14.54,PE,1699831907
302,lhasa,29.65,91.1,25.21,42,0,2.91,CN,1699831907
303,palmer,42.1584,-72.3287,34.14,73,0,0.0,US,1699831619
304,tazacorte,28.629,-17.9293,75.15,38,100,8.05,ES,1699831908
305,atafu village,-8.5421,-172.5159,84.2,69,71,1.03,TK,1699831908
306,nuuk,64.1835,-51.7216,21.81,68,65,5.75,GL,1699831908
307,marsh harbour,26.5412,-77.0636,78.37,64,70,9.13,BS,1699831908
308,i-n-salah,27.1935,2.4607,71.13,30,0,11.32,DZ,1699831909
309,xindian,36.7975,118.2944,32.95,37,72,5.82,CN,1699831909
310,viana do castelo,41.6932,-8.8329,63.66,97,94,15.55,PT,1699831909
311,colon,9.3592,-79.9014,76.68,95,100,7.25,PA,1699831909
312,moroni,-11.7022,43.2551,79.5,79,9,3.29,KM,1699831909
313,bonthe,7.5264,-12.505,79.68,85,57,5.53,SL,1699831910
314,poronaysk,49.2167,143.1167,21.69,79,53,4.97,RU,1699831910
315,dali,25.7,100.1833,50.25,87,0,1.45,CN,1699831910
316,kongolo,-5.3833,27.0,69.84,98,100,1.03,CD,1699831910
317,murghob,38.1702,73.9667,13.48,71,10,5.64,TJ,1699831911
318,newberry,34.2746,-81.6187,52.5,84,99,4.43,US,1699831829
319,firminopolis,-16.5819,-50.305,86.85,29,93,7.65,BR,1699831911
320,lys'va,58.1086,57.8053,33.13,86,99,4.14,RU,1699831911
321,slavyanka,42.8633,131.3847,28.31,45,75,9.78,RU,1699831912
322,wynyard,-41.0,145.7167,60.76,45,23,10.31,AU,1699831912
323,chipinge,-20.1883,32.6236,63.52,76,91,4.29,ZW,1699831912
324,cova figueira,14.8905,-24.2934,74.25,70,9,7.34,CV,1699831912
325,naliya,23.2667,68.8333,74.08,45,66,8.28,IN,1699831913
326,gorom-gorom,14.4439,-0.2361,81.09,11,31,9.64,BF,1699831914
327,yelizovo,53.1873,158.3805,28.54,63,75,7.0,RU,1699831915
328,vilyuysk,63.7553,121.6247,-11.4,100,57,3.51,RU,1699831915
329,miles city,46.4083,-105.8406,54.57,35,0,5.75,US,1699831916
330,pul-e 'alam,33.9953,69.0227,46.74,26,0,2.57,AF,1699831916
331,tsiombe,-25.3,45.4833,71.28,61,0,5.32,MG,1699831916
332,lerwick,60.1545,-1.1494,46.9,78,54,19.6,GB,1699831916
333,pokaran,26.9167,71.9167,67.95,35,39,7.38,IN,1699831917
334,kingston,17.997,-76.7936,86.95,76,20,17.27,JM,1699831889
335,kruisfontein,-34.0033,24.7314,52.7,77,4,8.12,ZA,1699831917
336,prince albert,53.2001,-105.7677,39.15,65,20,10.36,CA,1699831918
337,humberto de campos,-2.5983,-43.4611,76.23,86,2,5.97,BR,1699831918
338,nantucket,41.2835,-70.0995,42.15,65,96,5.75,US,1699831918
339,jieshi,22.8134,115.8257,64.67,74,91,12.08,CN,1699831918
340,new glasgow,45.5834,-62.6486,38.98,78,93,8.75,CA,1699831918
341,la paz,-16.5,-68.15,55.38,58,75,3.44,BO,1699831919
342,carnarvon,-24.8667,113.6333,71.42,76,13,8.48,AU,1699831919
343,lebu,-37.6167,-73.65,48.85,66,1,16.89,CL,1699831919
344,newport,51.5877,-2.9984,52.45,90,100,10.76,GB,1699831920
345,imam qasim,32.298,44.6828,64.45,37,100,1.03,IQ,1699831920
346,colares,38.7992,-9.4469,67.33,94,9,7.0,PT,1699831920
347,porto novo,6.4965,2.6036,80.01,85,32,6.6,BJ,1699831092
348,new norfolk,-42.7826,147.0587,62.71,42,17,7.52,AU,1699831920
349,winston,28.0317,-82.0148,77.0,85,75,10.36,US,1699831737
350,georgetown,5.4112,100.3354,80.53,92,20,2.3,MY,1699831717
351,hami,42.8,93.45,35.44,32,100,1.01,CN,1699831921
352,altay,47.8667,88.1167,26.8,69,93,6.22,CN,1699831921
353,waingapu,-9.6567,120.2641,83.89,71,100,5.44,ID,1699831922
354,anzola dell'emilia,44.5464,11.1946,46.89,93,41,3.44,IT,1699831922
355,beau vallon,-20.4189,57.6953,71.22,94,20,5.75,MU,1699831922
356,suntar,62.1444,117.6319,6.78,97,100,2.66,RU,1699831922
357,eagle mountain,40.3141,-112.0069,60.96,25,21,1.99,US,1699831922
358,mana,5.6592,-53.7767,79.81,87,31,12.15,GF,1699831923
359,santa luzia,-19.7697,-43.8514,90.5,47,36,4.76,BR,1699831923
360,giado,31.9582,12.0203,59.56,44,0,1.16,LY,1699831327
361,curup,-3.4667,102.5333,71.26,96,100,2.82,ID,1699831923
362,zadar,44.1197,15.2422,47.01,100,75,2.3,HR,1699831924
363,cooma,-36.2333,149.1333,68.47,32,63,1.41,AU,1699831924
364,nyurba,63.2842,118.3319,-9.38,100,93,2.51,RU,1699831356
365,igrim,63.1906,64.4162,14.59,93,42,2.66,RU,1699831925
366,wau,7.7029,27.9953,79.39,62,55,2.24,SS,1699831925
367,taourirt,34.4073,-2.8973,64.69,43,62,0.74,MA,1699831925
368,den burg,53.0542,4.7972,43.97,100,100,8.05,NL,1699831925
369,nelson bay,-32.7167,152.15,72.09,72,94,5.01,AU,1699831901
370,opuwo,-18.0607,13.84,74.95,38,82,4.21,NA,1699831926
371,ca mau,9.1769,105.15,78.87,92,93,8.59,VN,1699831926
372,remire-montjoly,4.9167,-52.2667,80.91,85,78,12.03,GF,1699831906
373,zhumysker,49.3333,49.4,46.33,59,100,17.25,KZ,1699831379
374,ulladulla,-35.35,150.4667,67.77,56,100,6.33,AU,1699831927
375,villanueva de cordoba,38.3228,-4.6287,53.28,93,10,3.02,ES,1699831927
376,bergama,39.1207,27.1805,59.9,90,32,3.13,TR,1699831927
377,tabou,4.423,-7.3528,78.93,88,6,8.68,CI,1699831350
378,orkney,-26.9802,26.6727,69.62,23,0,2.28,ZA,1699831928
379,riberalta,-10.9833,-66.1,78.57,80,90,4.03,BO,1699831928
380,hovd,48.0056,91.6419,21.9,93,98,1.14,MN,1699831928
381,bardai,11.65,7.2333,73.11,25,2,6.76,NG,1699831336
382,forster,-32.1667,152.5167,71.38,70,97,11.59,AU,1699831888
383,itambe,-15.245,-40.6244,71.44,64,17,2.13,BR,1699831929
384,san andres,12.5847,-81.7006,84.22,84,40,9.22,CO,1699831929
385,balakhta,55.38,91.6,23.04,91,100,1.66,RU,1699831929
386,shingu,33.7333,135.9833,49.3,75,69,13.15,JP,1699831344
387,fukuecho,32.6881,128.8419,50.36,57,75,16.11,JP,1699831930
388,valparaiso,-33.0393,-71.6273,56.84,76,40,13.8,CL,1699831847
389,ushtobe,45.2514,77.9838,39.11,86,100,7.74,KZ,1699831930
390,princeton,25.5384,-80.4089,80.6,82,0,8.05,US,1699831893
391,xilin hot,43.9667,116.0333,10.42,83,4,7.63,CN,1699831931
392,pacific grove,36.6177,-121.9166,67.01,80,0,11.5,US,1699831931
393,kudahuvadhoo,2.6708,72.8944,82.04,71,76,1.74,MV,1699831931
394,santa cruz,-17.8,-63.1667,93.25,43,36,16.11,BO,1699831884
395,lagunas,-5.2269,-75.6753,82.09,69,71,3.27,PE,1699831932
396,sagara,34.6833,138.2,53.19,71,75,3.44,JP,1699831932
397,selkirk,50.1436,-96.8845,40.17,77,67,8.99,CA,1699831914
398,labytnangi,66.6572,66.4183,9.66,89,9,8.43,RU,1699831932
399,bom jesus da lapa,-13.255,-43.4181,84.13,27,0,1.66,BR,1699831932
400,sur,22.5667,59.5289,77.29,57,100,3.11,OM,1699831379
401,linton,39.0348,-87.1658,53.28,47,3,5.01,US,1699831933
402,port shepstone,-30.7414,30.455,65.25,71,100,10.18,ZA,1699831933
403,flin flon,54.7682,-101.865,33.64,93,100,6.91,CA,1699831933
404,amga,60.8953,131.9608,5.04,93,100,7.2,RU,1699831934
405,yung shue wan,22.2333,114.1167,69.62,74,95,1.99,HK,1699831934
406,wickenburg,33.9686,-112.7296,77.2,18,0,8.34,US,1699831934
407,jumla,29.2747,82.1838,42.62,56,0,4.45,NP,1699831344
408,dawei,14.0833,98.2,76.77,89,100,4.85,MM,1699831934
409,carutapera,-1.195,-46.02,79.61,76,16,10.09,BR,1699831935
410,kavaratti,10.5669,72.642,82.0,75,85,4.76,IN,1699831935
411,brooks,50.5834,-111.8851,44.58,34,39,4.61,CA,1699831935
412,ternate,0.8,127.4,82.62,75,74,1.7,ID,1699831935
413,taro,-8.3862,115.28,71.6,90,20,1.39,ID,1699831380
414,taoudenni,22.6783,-3.9836,80.85,16,0,13.91,ML,1699831358
415,saldanha,-33.0117,17.9442,57.25,86,0,18.21,ZA,1699831937
416,kimbe,-5.5502,150.1429,84.78,58,92,3.2,PG,1699831362
417,arar,30.9753,41.0381,66.22,26,0,3.44,SA,1699831937
418,kuressaare,58.2481,22.5039,41.02,99,100,5.75,EE,1699831937
419,san jose de feliciano,-30.3845,-58.7517,68.7,94,100,14.76,AR,1699831938
420,nogliki,51.8333,143.1667,17.35,61,67,15.99,RU,1699831800
421,ulaangom,49.9811,92.0667,15.66,94,100,2.44,MN,1699831939
422,aras-asan,8.8908,126.3033,82.85,75,26,4.41,PH,1699831939
423,isangel,-19.55,169.2667,80.71,65,75,10.36,VU,1699831939
424,pelabuhanratu,-6.9875,106.5514,79.88,83,79,2.62,ID,1699831939
425,fuling,29.7022,107.3919,50.74,79,100,3.02,CN,1699831910
426,ancud,-41.8697,-73.8203,45.84,71,30,8.16,CL,1699831940
427,enriquillo,17.9,-71.2333,82.08,88,9,14.12,DO,1699831940
428,kasempa,-13.4584,25.8338,62.11,88,83,4.16,ZM,1699831940
429,yeppoon,-23.1333,150.7333,78.58,49,3,8.72,AU,1699831941
430,tromso,69.6496,18.957,26.62,63,0,6.91,NO,1699831941
431,murmashi,68.8154,32.8115,-7.19,84,0,4.47,RU,1699831941
432,san luis de la loma,17.2706,-100.8939,81.86,83,41,5.82,MX,1699831941
433,orhangazi,40.4892,29.3089,58.71,73,85,3.89,TR,1699831942
434,gole,52.1665,20.4937,44.92,91,100,10.78,PL,1699831942
435,kenai,60.5544,-151.2583,29.08,95,0,3.44,US,1699831942
436,gokceada,40.2011,25.909,65.48,74,100,9.8,TR,1699831942
437,ar rutbah,33.0381,40.2848,65.77,36,81,5.3,IQ,1699831942
438,laguna,38.421,-121.4238,75.09,31,0,5.75,US,1699831943
439,weligama,5.9667,80.4167,75.33,94,100,3.83,LK,1699831943
440,gao,16.6362,1.637,76.71,13,0,11.79,ML,1699831943
441,steinbach,50.1667,8.5667,45.57,97,100,4.61,DE,1699831943
442,sorong,-0.8833,131.25,81.73,80,100,9.13,ID,1699831944
443,dharchula,29.85,80.5333,54.55,40,0,6.58,IN,1699831944
444,parauapebas,-6.0675,-49.9022,83.1,53,54,1.16,BR,1699831838
445,vernon,50.2581,-119.2691,47.01,59,100,4.61,CA,1699831384
446,nova sintra,14.8667,-24.7167,74.5,71,28,7.14,CV,1699831944
447,mozhaysk,55.5019,36.0272,42.82,95,100,3.87,RU,1699831945
448,yuzhno-kurilsk,44.0306,145.8556,36.37,80,62,8.37,RU,1699831945
449,horqueta,-23.3428,-57.0597,100.78,24,47,11.18,PY,1699831945
450,andratx,39.5755,2.4202,61.63,67,99,6.76,ES,1699831945
451,ta`u,-14.2336,-169.5144,82.13,80,64,10.92,AS,1699831940
452,padang,-0.9492,100.3543,77.05,90,100,2.59,ID,1699831946
453,revda,56.801,59.9303,32.43,88,87,4.41,RU,1699831946
454,lincoln city,44.9582,-124.0179,59.72,85,100,8.99,US,1699831946
455,fortuna,40.5982,-124.1573,66.92,65,20,0.0,US,1699831946
456,richards bay,-28.783,32.0377,66.6,81,99,8.79,ZA,1699831947
457,weno,7.4515,151.8468,80.55,89,100,10.36,FM,1699831947
458,lijiang,26.8688,100.2207,38.95,68,0,4.43,CN,1699831947
459,taulaga,-11.0553,-171.0883,83.53,71,63,1.72,AS,1699831947
460,bandarbeyla,9.4942,50.8122,79.9,84,54,14.38,SO,1699831947
461,moree,-29.4667,149.85,90.09,28,2,11.27,AU,1699831948
462,easton,40.6884,-75.2207,37.85,70,0,4.61,US,1699831871
463,usinsk,65.9939,57.5281,5.07,100,68,5.01,RU,1699831948
464,darwin,-12.4611,130.8418,88.95,72,20,1.14,AU,1699831883
465,suva,-18.1416,178.4415,74.68,94,75,14.05,FJ,1699831948
466,verkhovazh'ye,60.7472,42.0465,32.14,96,100,12.75,RU,1699831949
467,crane,31.3974,-102.3501,58.42,70,100,8.88,US,1699831949
468,chulym,55.0997,80.9572,34.95,99,100,3.78,RU,1699831949
469,itoman,26.1247,127.6694,69.82,64,75,24.16,JP,1699831949
470,angaur state,6.906,134.13,83.53,79,99,14.14,PW,1699831950
471,zavety il'icha,49.0294,140.2494,14.16,73,93,7.47,RU,1699831950
472,nieuw amsterdam,5.8833,-55.0833,82.02,82,26,12.24,SR,1699831950
473,antsiranana,-12.2787,49.2917,76.59,79,46,13.35,MG,1699831950
474,nagqu,31.5,92.0,8.94,49,2,3.27,CN,1699831951
475,sinop,41.7711,34.8709,53.8,93,100,2.26,TR,1699831893
476,labasa,-16.4167,179.3833,80.19,87,100,10.58,FJ,1699831357
477,waounde,15.2637,-12.8682,87.31,15,100,9.57,SN,1699831951
478,brookings,44.3114,-96.7984,52.38,42,0,8.05,US,1699831676
479,hisai-motomachi,34.6667,136.4667,53.4,78,91,12.97,JP,1699831952
480,lebanon,36.2081,-86.2911,62.65,59,0,0.0,US,1699831850
481,mhamid,29.82,-5.72,69.73,31,26,2.68,MA,1699831952
482,belawan,3.7755,98.6832,77.29,89,99,4.18,ID,1699831952
483,howard springs,-12.497,131.047,88.88,62,82,0.72,AU,1699831953
484,jiagedaqi,50.4167,124.1167,14.23,76,12,3.89,CN,1699831953
485,tonghua,41.7201,125.9219,16.66,78,29,1.41,CN,1699831953
486,pisco,-13.7,-76.2167,69.85,78,0,19.57,PE,1699831953
487,goth phulji,26.8825,67.6807,68.54,23,83,2.89,PK,1699831954
488,srivardhan,18.0333,73.0167,79.16,59,100,5.28,IN,1699831954
489,prince george,53.9166,-122.753,36.84,80,100,6.91,CA,1699831954
490,sao felix do xingu,-6.6447,-51.995,86.27,42,92,0.98,BR,1699831954
491,upper grand lagoon,30.1633,-85.7408,66.34,81,97,5.99,US,1699831954
492,east london,-33.0153,27.9116,58.55,67,1,8.81,ZA,1699831955
493,mandera,3.9366,41.867,80.29,75,64,4.41,KE,1699831955
494,abdulino,53.7,53.6667,36.41,78,100,16.71,RU,1699831955
495,ambovombe,-25.1667,46.0833,71.06,59,0,5.32,MG,1699831955
496,elverum,60.8819,11.5623,7.25,98,55,3.83,NO,1699831956
497,kabalo,-6.05,26.9167,68.36,98,93,3.11,CD,1699831956
498,hoensbroek,50.9239,5.9253,46.94,89,75,5.75,NL,1699831956
499,kuala belait,4.5833,114.1833,78.96,87,43,4.52,BN,1699831956
500,vadso,70.0744,29.7487,23.16,93,20,14.97,NO,1699831943
501,nguigmi,14.2495,13.1092,78.06,22,5,11.52,NE,1699831957
502,humaita,-7.5061,-63.0208,84.61,59,90,2.55,BR,1699831957
503,robertsport,6.7533,-11.3686,80.82,83,84,9.31,LR,1699831957
504,strathalbyn,-35.2667,138.9,66.72,67,58,8.48,AU,1699831957
505,zambezi,-13.5432,23.1047,68.2,81,100,2.17,ZM,1699831958
506,eregli,37.5133,34.0467,53.44,44,33,1.07,TR,1699831958
507,xining,36.6167,101.7667,27.03,61,1,1.99,CN,1699831958
508,bonab,37.3404,46.0561,53.29,47,76,3.94,IR,1699831958
509,faya-largeau,17.9257,19.1043,78.76,19,7,14.76,TD,1699831958
510,rio grande,-32.035,-52.0986,62.71,93,100,10.67,BR,1699831959
511,vilyuchinsk,52.9306,158.4028,28.67,70,33,5.17,RU,1699831959
512,porto seguro,-16.4497,-39.0647,77.52,83,0,9.22,BR,1699831960
513,santyoku,37.4406,129.1708,39.31,35,8,6.6,KR,1699831961
514,nikel,69.4128,30.222,8.78,99,100,6.02,RU,1699831961
515,tambacounda,13.7539,-13.7586,82.38,21,87,1.03,SN,1699831961
516,ubari,26.5921,12.7805,65.05,28,0,5.66,LY,1699831961
517,yankton,42.8711,-97.3973,57.45,30,0,9.22,US,1699831962
518,sinabang,2.4803,96.3801,78.98,85,99,3.44,ID,1699831962
519,paracuru,-3.41,-39.0306,82.11,77,0,11.41,BR,1699831962
520,cadale,2.7603,46.3222,81.97,77,24,7.0,SO,1699831962
521,daru,-9.0763,143.2092,80.2,69,81,7.52,PG,1699831962
522,ganye,8.4333,12.0667,79.93,48,68,2.26,NG,1699831963
523,panjab,34.388,67.0233,32.81,40,0,3.31,AF,1699831963
524,aleksandrov gay,50.147,48.5704,48.27,62,100,21.36,RU,1699831963
525,qarqaraly,49.4058,75.4742,31.73,91,90,10.33,KZ,1699831963
526,nadym,65.5333,72.5167,12.78,86,26,13.98,RU,1699831964
527,huarmey,-10.0681,-78.1522,68.18,84,83,9.84,PE,1699831964
528,mzuzu,-11.4656,34.0207,65.61,83,31,0.4,MW,1699831964
529,zouerate,22.7187,-12.4521,73.33,12,0,5.91,MR,1699831965
530,el nido,11.1858,119.3956,83.35,76,43,14.41,PH,1699831383
531,berezovyy,51.6667,135.7,16.39,58,69,1.54,RU,1699831965
532,orapa,-21.2833,25.3667,81.41,17,76,8.48,BW,1699831965
533,zahedan,29.4963,60.8629,46.31,61,0,6.91,IR,1699831965
534,toliara,-23.35,43.6667,72.18,79,0,0.78,MG,1699831966
535,whakatane,-37.9585,176.9854,74.88,67,0,5.01,NZ,1699831966
536,barabai,-2.5833,115.3833,78.44,91,97,1.68,ID,1699831966
537,urangan,-25.3,152.9,73.63,63,47,8.5,AU,1699831966
538,vikulovo,56.8167,70.6107,36.75,98,100,7.16,RU,1699831967
539,amnat charoen,15.9167,104.75,73.98,85,21,12.3,TH,1699831967
540,novyy urgal,51.0736,132.5642,7.97,88,79,1.12,RU,1699831967
541,nioki,-2.7167,17.6833,69.84,95,100,1.34,CD,1699831967
542,abu jibeha,11.4562,31.2285,83.89,42,94,1.21,SD,1699831967
543,miguel ahumada,30.6167,-106.5167,64.13,53,81,14.76,MX,1699831968
544,kas,36.2018,29.6377,65.57,80,46,2.37,TR,1699831968
545,arrifes,37.7667,-25.7,66.45,88,20,12.66,PT,1699831968
546,ximeicun,24.9639,118.3794,63.99,76,85,8.97,CN,1699831968
547,fort-shevchenko,44.5086,50.263,54.28,49,51,23.38,KZ,1699831969
548,cururupu,-1.8283,-44.8683,75.15,83,32,4.32,BR,1699831969
549,west kelowna,49.8625,-119.5833,44.85,69,0,3.44,CA,1699831906
550,pajapan,18.25,-94.7,75.36,94,86,10.58,MX,1699831969
551,inirida,3.8653,-67.9239,78.28,92,100,3.4,CO,1699831969
552,wellington,-41.2866,174.7756,65.86,77,77,24.16,NZ,1699831970
553,dzilam gonzalez,21.2833,-88.9333,80.08,75,90,9.26,MX,1699831970
554,catalao,-18.1658,-47.9464,83.53,24,79,5.82,BR,1699831900
555,mwene-ditu,-7.0,23.45,64.58,96,97,3.29,CD,1699831970
556,sao tome,0.3365,6.7273,79.02,87,63,7.74,ST,1699831970
557,slavsk,55.0425,21.677,44.89,77,49,11.77,RU,1699831971
558,perugorria,-29.3413,-58.6106,72.61,94,77,15.26,AR,1699831971
559,qujing,25.4833,103.7833,53.65,95,100,3.15,CN,1699831791
560,tahara,34.6667,137.2667,53.55,50,75,22.46,JP,1699831972
561,sorochinsk,52.4338,53.1583,37.76,76,100,16.37,RU,1699831972
562,mount pearl,47.5166,-52.7813,31.14,90,100,14.97,CA,1699831972
563,ceerigaabo,10.6162,47.368,63.36,71,48,5.82,SO,1699831972
564,pirenopolis,-15.8525,-48.9592,78.94,39,53,2.71,BR,1699831972
565,peterhead,57.5058,-1.7981,46.8,73,27,22.95,GB,1699831973
566,atasu,48.6814,71.6433,36.54,88,98,9.51,KZ,1699831973
567,oral,51.2333,51.3667,37.38,93,0,20.13,KZ,1699831973
568,orlov,58.5395,48.8917,36.25,97,100,13.15,RU,1699831973
569,kosh-agach,50.0,88.6667,15.31,88,99,1.99,RU,1699831973
570,selfoss,63.9331,-20.9971,38.05,64,100,16.26,IS,1699831974
571,haapajarvi,63.75,25.3333,25.45,82,100,8.52,FI,1699831974
572,nouadhibou,20.931,-17.0347,71.58,68,0,14.97,MR,1699831974
573,mandal,25.45,74.5667,61.27,40,84,2.71,IN,1699831974
574,shizunai-furukawacho,42.3339,142.3669,39.09,59,14,8.3,JP,1699831974
